{"city": "茂名", "name": "如家快捷酒店（光华南路人民广场店）", "gpsLat": 21.655849780247, "price": "142", "gpsLng": 110.931101118683, "address": "茂南区光华南路189号(原远光大厦)"}
{"city": "茂名", "name": "高州聚福宾馆", "gpsLat": 21.907480279351, "price": "130", "gpsLng": 110.853129131779, "address": "高州市茂名大道86号"}
{"city": "茂名", "name": "高州佳怡宾馆", "gpsLat": 21.908536078824, "price": "130", "gpsLng": 110.865614216798, "address": "高州市潘州街道桂圆路"}
{"city": "西安", "name": "惬意旅馆", "gpsLat": 34.222431243605, "price": "128", "gpsLng": 108.974065750268, "address": "雁塔区慈恩路35号一排七号(近大雁塔南广场)"}
{"city": "西安", "name": "亨瑞快捷酒店", "gpsLat": 34.230600876413, "price": "148", "gpsLng": 108.925943162031, "address": "西斜七路(太白加油站正对面)"}
{"city": "西安", "name": "尚俭太空舱公寓（交大南门店）", "gpsLat": 34.243024458551, "price": "59", "gpsLng": 108.989687482263, "address": "西安市南二环武警医院对面天伦御城龙脉4单元1605室"}
{"city": "南京", "name": "凯旺连锁宾馆（白下路店）", "gpsLat": 32.032945733161, "price": "135", "gpsLng": 118.805485925857, "address": "白下区白下路279号（南京杭州环北服装批发市场北侧）"}
{"city": "南京", "name": "苏南大酒店", "gpsLat": 31.948673117692, "price": "160", "gpsLng": 118.75745900877, "address": "南京市雨花台区铁心桥大周路商业门面房"}
{"city": "南京", "name": "美迪斯商务宾馆", "gpsLat": 32.067093499907, "price": "180", "gpsLng": 118.757718687604, "address": "鼓楼区石头城路84号"}
{"city": "北戴河（秦皇岛）", "name": "北戴河渔嫂家庭旅馆", "gpsLat": 39.81770034049, "price": "128", "gpsLng": 119.455585054531, "address": "北戴河区河东寨村西街76号(联峰山公园旁)"}
{"city": "北戴河（秦皇岛）", "name": "北戴河效锋旅馆", "gpsLat": 39.828644436636, "price": "320", "gpsLng": 119.486104151246, "address": "北戴河区草场中路103号（石塘路市场西行约5分钟）"}
{"city": "北戴河（秦皇岛）", "name": "北戴河凯霞旅馆", "gpsLat": 39.841908558159, "price": "150", "gpsLng": 119.498678073762, "address": "北戴河区大河镇大薄荷寨村中街西40号（区政府东侧）"}
{"city": "广州", "name": "棠下如家住宿", "gpsLat": 23.132595476831, "price": "0", "gpsLng": 113.386842855223, "address": "棠下南闸8街二巷4号(麦当劳对面)"}
{"city": "广州", "name": "东升出租屋", "gpsLat": 23.129928643536, "price": "0", "gpsLng": 113.387669727301, "address": "棠下儒林大街三巷3号"}
{"city": "广州", "name": "怡园豪华公寓", "gpsLat": 23.127492446049, "price": "0", "gpsLng": 113.419022529748, "address": "黄村园丁路1-3号"}
{"city": "东莞", "name": "明锋公寓", "gpsLat": 22.939399549156, "price": "0", "gpsLng": 113.708133910112, "address": "汀山广场路"}
{"city": "东莞", "name": "长安好运来住宿", "gpsLat": 22.814075468452, "price": "0", "gpsLng": 113.822884620375, "address": "上洋育兴二巷15号"}
{"city": "东莞", "name": "长安君发旅馆", "gpsLat": 22.81182890485, "price": "0", "gpsLng": 113.825754754862, "address": "东莞市长安镇下洋路29号旁"}
{"city": "荆州", "name": "燕园宾馆", "gpsLat": 30.316048367008, "price": "0", "gpsLng": 112.269567835862, "address": "红门路烈士陵园旁,劳动局对面"}
{"city": "荆州", "name": "石首军林宾馆", "gpsLat": 29.731463474833, "price": "0", "gpsLng": 112.420584745468, "address": "荆州石首市锦帻路79号"}
{"city": "荆州", "name": "全季酒店（万达店）", "gpsLat": 30.337878473245, "price": "199", "gpsLng": 112.247146618594, "address": "沙市区江津西路279号（市公安局对面）"}
{"city": "重庆", "name": "万兴宾馆", "gpsLat": 29.626676231433, "price": "138", "gpsLng": 106.338639927518, "address": "沙坪坝区陈家桥陈青路206号"}
{"city": "重庆", "name": "洛可快捷酒店（沙坪坝店）", "gpsLat": 29.535781805682, "price": "158", "gpsLng": 106.460026115369, "address": "沙坪坝区凤天大道124号（凤天锦园对面）"}
{"city": "重庆", "name": "汉庭快捷酒店（南坪步行街店）", "gpsLat": 29.53549820906, "price": "149", "gpsLng": 106.578569503347, "address": "南岸区南坪东路15号(新洲大厦内)"}
{"city": "三亚", "name": "黄流宏祥宾馆", "gpsLat": 18.502677322193, "price": "0", "gpsLng": 108.811588803674, "address": "三亚黄流镇怀卷村小学路口"}
{"city": "三亚", "name": "大东海幽蓝海域度假别墅", "gpsLat": 18.226917192435, "price": "0", "gpsLng": 109.535826239616, "address": "大东海旅游度假区东海路11号(珠江花园旁)"}
{"city": "三亚", "name": "忆乡人精品民宿", "gpsLat": 18.250202866876, "price": "388", "gpsLng": 109.625770787525, "address": "三亚亚龙湾玫瑰谷旁边"}
{"city": "厦门", "name": "日出印象客栈", "gpsLat": 24.450771368233, "price": "148", "gpsLng": 118.163915196801, "address": "思明区黄厝村黄厝社168号(易购超市对面)"}
{"city": "厦门", "name": "木玛时尚精品酒店", "gpsLat": 24.511679722245, "price": "179", "gpsLng": 118.18261207289, "address": "湖里区万达广场A1地块SOHO B1楼22层2204单元(金山路与仙岳路交汇处)"}
{"city": "厦门", "name": "鼓浪屿漫时光旅馆", "gpsLat": 24.452988888807, "price": "128", "gpsLng": 118.070130135603, "address": "厦门市鼓浪屿内厝澳119号（附楼）"}
{"city": "西安", "name": "龙凤宾馆(凤城六路店)", "gpsLat": 34.173912303463, "price": "0", "gpsLng": 108.945555747694, "address": "西安市未央区凤城六路新界小区A座9层"}
{"city": "西安", "name": "忆佳宾馆", "gpsLat": 34.302111643894, "price": "0", "gpsLng": 108.959701410524, "address": "西安市未央区方新村龙首商业街东口路北时代明丰苑B1210"}
{"city": "西安", "name": "家馨旅馆", "gpsLat": 34.222236484479, "price": "0", "gpsLng": 108.981172749951, "address": "陕西省西安市大雁塔南广场太平堡15号"}
{"city": "吉林", "name": "都市驿站", "gpsLat": 43.83833507064, "price": "129", "gpsLng": 126.602957962425, "address": "滨江东路嘉和雅苑17号"}
{"city": "吉林", "name": "豪俪旅馆", "gpsLat": 43.855439705454, "price": "40", "gpsLng": 126.556489118345, "address": "光华路光荣胡同"}
{"city": "吉林", "name": "阳光之恋旅店", "gpsLat": 43.855487541029, "price": "50", "gpsLng": 126.556010762597, "address": "光华路光荣胡同"}
{"city": "衡阳", "name": "南岳区9天商务宾馆", "gpsLat": 27.242448679201, "price": "128", "gpsLng": 112.736914567887, "address": "衡阳市南岳区方广路67号(方广路和莲花路交汇处-邻近妇幼保健院)近财神庙"}
{"city": "衡阳", "name": "君雅洲际酒店", "gpsLat": 26.898989252224, "price": "278", "gpsLng": 112.581681294046, "address": "蒸湘区解放大道4号-近南华大学 市政府"}
{"city": "衡阳", "name": "汉龙酒店（冶金店）", "gpsLat": 26.904695352931, "price": "139", "gpsLng": 112.605113892039, "address": "蒸湘区常胜西路4号"}
{"city": "毕节", "name": "织金和谐旅社", "gpsLat": 26.679881818735, "price": "0", "gpsLng": 105.780460272625, "address": "织金县金北路20号"}
{"city": "毕节", "name": "织金温州大酒店", "gpsLat": 26.679102782231, "price": "179", "gpsLng": 105.778492180405, "address": "织金县金北路北大街转盘旁"}
{"city": "毕节", "name": "威宁华立宾馆", "gpsLat": 26.870069230438, "price": "150", "gpsLng": 104.296593909051, "address": "贵州省威宁县开发区富民路"}
{"city": "天津", "name": "家安旅馆", "gpsLat": 39.19933669886, "price": "0", "gpsLng": 117.039464841223, "address": "青光镇津霸公路与104国道交口"}
{"city": "天津", "name": "富达里忠诚日租", "gpsLat": 39.077451654301, "price": "0", "gpsLng": 117.200588724416, "address": "富达里"}
{"city": "天津", "name": "华木里25号楼2门", "gpsLat": 39.060155677188, "price": "0", "gpsLng": 117.131117802517, "address": "宾水西道大学城站付村华木里25号楼2门"}
{"city": "齐齐哈尔", "name": "富盛园旅店", "gpsLat": 47.3552133627, "price": "40", "gpsLng": 123.994183388485, "address": "运建园对面电苑小区"}
{"city": "齐齐哈尔", "name": "清心旅店", "gpsLat": 47.354851179062, "price": "35", "gpsLng": 123.994005713493, "address": "铁锋区电苑小区6号楼18号"}
{"city": "齐齐哈尔", "name": "田家休闲旅馆", "gpsLat": 47.351260094126, "price": "30", "gpsLng": 123.99237930395, "address": "二马路土产公司西门(站前市场西邻)"}
{"city": "三亚", "name": "港湾旅馆", "gpsLat": 18.245624319004, "price": "129", "gpsLng": 109.513131676206, "address": "三亚市解放一路195号（公共汽车站第一市场下，回走20米烟草公司旁）"}
{"city": "三亚", "name": "海悦公寓B栋", "gpsLat": 18.26743904952, "price": "0", "gpsLng": 109.504835620807, "address": "河西区铁路中路朝阳二巷47号铁路中路"}
{"city": "三亚", "name": "鸿运导游之家", "gpsLat": 18.297717259948, "price": "150", "gpsLng": 109.444255282165, "address": "三亚市海坡村北门西行150米"}
{"city": "荆门", "name": "华达酒店（京山县）", "gpsLat": 31.027090017963, "price": "132", "gpsLng": 113.124908914991, "address": "荆门京山县新市镇紫宵路15号（京源大道与紫宵路交叉口）"}
{"city": "荆门", "name": "吾家公寓", "gpsLat": 31.035163979621, "price": "69", "gpsLng": 112.210887252905, "address": "荆门东宝区中天街38号3楼(老大同眼镜对面)"}
{"city": "荆门", "name": "富丽华宾馆", "gpsLat": 30.991548185895, "price": "0", "gpsLng": 112.21041573081, "address": "荆门市掇刀区虎牙关大道"}
{"city": "阜阳", "name": "壹家美宾馆", "gpsLat": 32.904434735608, "price": "0", "gpsLng": 115.835183744977, "address": "颍州区颍河西路198号"}
{"city": "阜阳", "name": "华荣招待所", "gpsLat": 32.883523755772, "price": "0", "gpsLng": 115.839174598645, "address": "颍州区一道河东路龙腾义耕新天地小区2号门面"}
{"city": "阜阳", "name": "丝绸招待所", "gpsLat": 32.906013309576, "price": "0", "gpsLng": 115.807384442372, "address": "颍州区颍河西路"}
{"city": "洪湖（荆州）", "name": "洪湖望江楼商务宾馆", "gpsLat": 0.5201083421707153, "price": "138", "gpsLng": 1.9796751737594604, "address": "洪湖市州陵大道1号"}
{"city": "洪湖（荆州）", "name": "洪湖凯莱宾馆", "gpsLat": 0.520125150680542, "price": "136", "gpsLng": 1.9794718027114868, "address": "宝按商业广场步行街"}
{"city": "洪湖（荆州）", "name": "洪湖三和庄酒店", "gpsLat": 0.5203416347503662, "price": "280", "gpsLng": 1.9797061681747437, "address": "洪湖市第四人民医院对面"}
{"city": "上海", "name": "如家快捷酒店（虹桥机场店）", "gpsLat": 31.189748056375, "price": "170", "gpsLng": 121.363240442458, "address": "长宁区沪青平公路38号(虹桥机场入口处)"}
{"city": "上海", "name": "如家快捷酒店（江宁路新会路店）", "gpsLat": 31.248613147979, "price": "208", "gpsLng": 121.451080225076, "address": "普陀区新会路21号(新会路与江宁路路口南侧)"}
{"city": "上海", "name": "黎明客栈", "gpsLat": 31.304679858457, "price": "148", "gpsLng": 121.454169036476, "address": "闸北区江场一路18号华瑞大厦2楼（紧邻共和新路）"}
{"city": "深圳", "name": "7天连锁酒店（华强科学馆地铁站店）", "gpsLat": 22.543982145893, "price": "239", "gpsLng": 114.098164685972, "address": "福田区南园路149号（近南园路与爱华路交汇处）"}
{"city": "深圳", "name": "泰信酒店", "gpsLat": 22.754116992282, "price": "128", "gpsLng": 114.02453890272, "address": "深圳市龙华新区观澜街道大水坑天富商贸城3fd栋"}
{"city": "深圳", "name": "学子e家公寓(学府店)", "gpsLat": 22.530953785416, "price": "0", "gpsLng": 113.938612543094, "address": "深圳市南山区桂庙新村学府城商业街"}
{"city": "丹东", "name": "东港黎明旅馆", "gpsLat": 39.895125635111, "price": "200", "gpsLng": 124.154090881348, "address": "东港市客运站对过"}
{"city": "丹东", "name": "东港宝隆阁旅馆", "gpsLat": 39.885425263909, "price": "0", "gpsLng": 124.155703623583, "address": "东港市金港宾馆隔壁"}
{"city": "丹东", "name": "百元快捷宾馆（城北店）", "gpsLat": 40.467071685062, "price": "263", "gpsLng": 124.087339753558, "address": "凤山路78-1-2"}
{"city": "昌黎（秦皇岛）", "name": "昌黎香纳森宾馆", "gpsLat": 39.731155535218, "price": "128", "gpsLng": 119.186544114617, "address": "昌黎昌黄路小蒲河村东(路南)"}
{"city": "昌黎（秦皇岛）", "name": "长城大酒店(昌黎县)", "gpsLat": 39.716446095971, "price": "350", "gpsLng": 119.34537189022, "address": "秦皇岛昌黎县黄金海岸三维路11号(或二经路22号)"}
{"city": "昌黎（秦皇岛）", "name": "昌黎黄金海岸国海大酒店", "gpsLat": 39.704316360935, "price": "138", "gpsLng": 119.341627048079, "address": "昌黎黄金海岸一纬路22号(近二经路)"}
{"city": "遂平（驻马店）", "name": "嵖岈山天磨湖农家乐", "gpsLat": 33.152646699529, "price": "0", "gpsLng": 113.747523089123, "address": "遂平县嵖岈山景区温泉小镇向西300米"}
{"city": "遂平（驻马店）", "name": "遂平嵖岈山山水农家宾馆", "gpsLat": 33.166225169115, "price": "0", "gpsLng": 114.00348441616, "address": "遂平县嵖岈山风景区东山门向南50米路东"}
{"city": "遂平（驻马店）", "name": "嵖岈山山雅居宾馆", "gpsLat": 33.133088783094, "price": "145", "gpsLng": 113.745206480573, "address": "嵖岈山风景区东山门斜对面20米"}
{"city": "贵阳", "name": "五新商务酒店", "gpsLat": 26.563019509528, "price": "168", "gpsLng": 106.711354225304, "address": "酒店内部原因,拒接网络客人,建议改订扬帆国际酒店,遵义路如家酒店,中铁宾馆"}
{"city": "贵阳", "name": "7天连锁酒店（瑞金北路店）", "gpsLat": 26.596743589754, "price": "165", "gpsLng": 106.709406634045, "address": "云岩区瑞金北路217号"}
{"city": "贵阳", "name": "如家快捷酒店（遵义路店）", "gpsLat": 26.567075282905, "price": "227", "gpsLng": 106.712550114674, "address": "南明区遵义路万象国际C栋12-16楼(火车站地区,火车站出正门直走第一个十字路口即到)"}
{"city": "南通", "name": "富贵苑招待所", "gpsLat": 32.085014756318, "price": "75", "gpsLng": 121.069092659434, "address": "老通掘公路胜利桥旁"}
{"city": "南通", "name": "今世缘宾馆", "gpsLat": 32.039765719396, "price": "0", "gpsLng": 120.834411329525, "address": "港闸区外环北路798号(尚美家大酒店)"}
{"city": "南通", "name": "田园宾馆", "gpsLat": 31.99290052341, "price": "128", "gpsLng": 120.903964255266, "address": "南通市崇川区洪江路天都花苑农贸市场2楼"}
{"city": "德清", "name": "莫干山竹韵山庄", "gpsLat": 30.63730525363, "price": "158", "gpsLng": 119.844337937179, "address": "德清县莫干山镇仙潭村19号"}
{"city": "德清", "name": "莫干山琳悦山居(农家乐)", "gpsLat": 30.633857675419, "price": "168", "gpsLng": 119.860041673016, "address": "德清莫干山镇碧坞村高石堪14号"}
{"city": "德清", "name": "莫干山竹溪雅居农庄(农家乐)", "gpsLat": 30.907179899276, "price": "280", "gpsLng": 120.065816648447, "address": "德清 筏头乡钱家边村94号"}
{"city": "曲靖", "name": "珠源商务宾馆", "gpsLat": 25.53647319982, "price": "120", "gpsLng": 103.826916901169, "address": "珠江源大道职教园区财校农校十字路口(丰登小学对面)"}
{"city": "曲靖", "name": "德润大酒店", "gpsLat": 25.502414270571, "price": "140", "gpsLng": 103.798345395714, "address": "曲靖市寥廓南路118号"}
{"city": "曲靖", "name": "悦庭酒店", "gpsLat": 25.485774324198, "price": "128", "gpsLng": 103.802684765712, "address": "麒麟区南关九村326号"}
{"city": "郑州", "name": "7天连锁酒店（紫荆山店）", "gpsLat": 34.758794459568, "price": "144", "gpsLng": 113.686662570686, "address": "管城区商城路257号(紫荆山路与商城路交叉口西50米路南)"}
{"city": "郑州", "name": "希尔利公寓酒店", "gpsLat": 34.746077030328, "price": "178", "gpsLng": 113.717530183731, "address": "未来路与陇海路交叉口升龙凤凰城c区1号楼1单元602室(近升龙凤凰茶城)"}
{"city": "郑州", "name": "梵高公寓", "gpsLat": 34.751168102216, "price": "128", "gpsLng": 113.651339415532, "address": "二七区中原路中苑名都1312A座"}
{"city": "偃师（洛阳）", "name": "偃师家印象旅馆", "gpsLat": 34.734326563064, "price": "0", "gpsLng": 112.73659338617, "address": "偃师首阳山镇310国道旁坟庄口东50米大豪工贸斜对面"}
{"city": "偃师（洛阳）", "name": "偃师凤凰之星快捷宾馆（安民巷店）", "gpsLat": 34.726358523035, "price": "0", "gpsLng": 112.796852543096, "address": "偃师市洛神路安民巷北段"}
{"city": "偃师（洛阳）", "name": "偃师凤凰之星快捷宾馆（安乐巷店）", "gpsLat": 34.726396108129, "price": "0", "gpsLng": 112.79634001908, "address": "偃师市洛神路安乐巷中段"}
{"city": "东莞", "name": "清溪惠友住宿", "gpsLat": 0.3977798521518707, "price": "0", "gpsLng": 1.9913358688354492, "address": "东莞清溪镇谢坑路"}
{"city": "东莞", "name": "好怡公寓(常平店)", "gpsLat": 0.40091049671173096, "price": "0", "gpsLng": 1.9886837005615234, "address": "广东省东莞市常平镇正北街"}
{"city": "东莞", "name": "虎门佳宜住宿", "gpsLat": 0.39793872833251953, "price": "0", "gpsLng": 1.9829407930374146, "address": "九门寨九咀新路55号"}
{"city": "吉首（湘西）", "name": "吉首湘柳杰酒店(火车站分店)", "gpsLat": 28.328967132386, "price": "158", "gpsLng": 109.742038568873, "address": "吉首市光明西路23号"}
{"city": "吉首（湘西）", "name": "吉首玉泉宾馆", "gpsLat": 28.266994436835, "price": "128", "gpsLng": 109.716139021952, "address": "吉首市青少年宫旁(近火车站)"}
{"city": "吉首（湘西）", "name": "吉首喆啡酒店(人民北路店)", "gpsLat": 28.310757154112, "price": "208", "gpsLng": 109.743029448637, "address": "吉首市人民北路121号(原香格里拉酒店)"}
{"city": "井冈山", "name": "实惠农家乐（吉安）", "gpsLat": 26.54740119436, "price": "158", "gpsLng": 114.160344099543, "address": "吉安市井冈山大井林场"}
{"city": "井冈山", "name": "满江红大酒店", "gpsLat": 26.751935861673, "price": "150", "gpsLng": 114.293771184933, "address": "井冈山新城区红军大道（兴国路与红军大道交汇处）"}
{"city": "井冈山", "name": "丽景湾商务宾馆", "gpsLat": 26.751882900858, "price": "150", "gpsLng": 114.292445456146, "address": "井冈山红军大道（建设局右侧）"}
{"city": "上海", "name": "白牛宾馆", "gpsLat": 30.898593413602, "price": "160", "gpsLng": 121.030127166942, "address": "金山区白牛路280号"}
{"city": "上海", "name": "富天旅馆", "gpsLat": 30.91750213295, "price": "0", "gpsLng": 121.465130216756, "address": "青浦区南奉公路9762弄18号"}
{"city": "上海", "name": "瀛佳农家乐（三美农家乐）", "gpsLat": 31.72454294885, "price": "100", "gpsLng": 121.517011314441, "address": "崇明县前卫村555号"}
{"city": "诸暨（绍兴）", "name": "诸暨新阳光宾馆", "gpsLat": 29.727291529346, "price": "0", "gpsLng": 120.245336726972, "address": "诸暨市艮塔路63号"}
{"city": "诸暨（绍兴）", "name": "诸暨市赵家云顶山庄", "gpsLat": 29.74123218257, "price": "138", "gpsLng": 120.535903675541, "address": "诸暨市赵家镇东庄村50号桃岭自然村"}
{"city": "诸暨（绍兴）", "name": "诸暨市万欢宾馆", "gpsLat": 29.849921442141, "price": "0", "gpsLng": 120.358119345015, "address": "诸暨市山下湖珠宝城西门对面"}
{"city": "呼和浩特", "name": "森林氧吧时尚酒店(回中店)", "gpsLat": 40.821239447138, "price": "149", "gpsLng": 111.662828238906, "address": "呼和浩特市回民区通道街伊嘎拉达巷"}
{"city": "呼和浩特", "name": "云豪湾商务酒店", "gpsLat": 40.7629825507, "price": "178", "gpsLng": 111.730091890712, "address": "呼和浩特市金桥开发区景观大道（化肥厂生活区对面）"}
{"city": "呼和浩特", "name": "汉庭酒店(海拉尔东街店)", "gpsLat": 40.852708421695, "price": "151", "gpsLng": 111.72750193602, "address": "新城区海拉尔东街开天花园东侧"}
{"city": "苏州", "name": "东港商务宾馆", "gpsLat": 31.364118976957, "price": "138", "gpsLng": 120.788694187334, "address": "苏州市工业园区唯亭镇金陵西路738号（东亭家园对面）"}
{"city": "苏州", "name": "怡家宾馆", "gpsLat": 31.322771956207, "price": "138", "gpsLng": 120.634499628832, "address": "姑苏区临顿路温家岸51-53号"}
{"city": "苏州", "name": "西山行农家乐", "gpsLat": 31.102123533844, "price": "198", "gpsLng": 120.270566575846, "address": "吴中区西山风景区缥缈村西蔡里（背靠缥缈峰）"}
{"city": "赤水（遵义）", "name": "赤水市盘龙曹氏农家客栈", "gpsLat": 28.368542528456, "price": "158", "gpsLng": 105.7949817864, "address": "贵州省赤水市盘龙村养老院旁"}
{"city": "赤水（遵义）", "name": "赤水民悦旅社", "gpsLat": 28.588953481358, "price": "0", "gpsLng": 105.706417636507, "address": "赤水 红军大道宜佳苑小区3栋2单元1-1"}
{"city": "赤水（遵义）", "name": "赤水紫桐公寓", "gpsLat": 28.583618106356, "price": "198", "gpsLng": 105.737907112024, "address": "赤水市城工大道与蓉遵高速(G4215)出口交汇处右行200米"}
{"city": "太原", "name": "永丽招待所", "gpsLat": 37.808599365745, "price": "0", "gpsLng": 112.599913481694, "address": "许西南街33号"}
{"city": "太原", "name": "华晋旅馆", "gpsLat": 37.832691411304, "price": "0", "gpsLng": 112.593141331035, "address": "建设南路茂盛装饰东口狄村南街一号"}
{"city": "太原", "name": "心悦宾馆", "gpsLat": 37.862974746971, "price": "0", "gpsLng": 112.587763245698, "address": "太原市小店区通达街与真武路交叉口路西南"}
{"city": "厦门", "name": "礼品卡八折", "gpsLat": 24.495036359046, "price": "0", "gpsLng": 118.141432476651, "address": "思明区"}
{"city": "厦门", "name": "悦佳亿宝酒店", "gpsLat": 24.481433971672, "price": "278", "gpsLng": 118.123828985129, "address": "厦门市思明区湖滨南路328号"}
{"city": "厦门", "name": "银河商务酒店", "gpsLat": 24.478345160272, "price": "218", "gpsLng": 118.125687738892, "address": "厦门市思明区厦禾路988号（银河大厦）"}
{"city": "郑州", "name": "七星快捷宾馆", "gpsLat": 34.835365547496, "price": "88", "gpsLng": 113.687011087017, "address": "金水区三全路与花园路交叉口向被300米柳林村口"}
{"city": "郑州", "name": "蓝色帆船青年旅舍", "gpsLat": 34.75326945068, "price": "0", "gpsLng": 113.66038717282, "address": "郑州市二七区中原路与京广路交叉口蜜蜂张街泰和园小区188号1号楼4单元"}
{"city": "郑州", "name": "爱琴海酒店公寓", "gpsLat": 34.701805205861, "price": "0", "gpsLng": 113.678838037381, "address": "二七区南三环连云路佛岗新居"}
{"city": "荥阳（郑州）", "name": "荥阳国人假日酒店", "gpsLat": 34.804200670522, "price": "148", "gpsLng": 113.419002028787, "address": "荥阳市国际服装产业园区"}
{"city": "荥阳（郑州）", "name": "郑州海龙大酒店", "gpsLat": 34.792446786431, "price": "288", "gpsLng": 113.425056645825, "address": "荥阳市索河路99号(近棋源路)"}
{"city": "荥阳（郑州）", "name": "荥阳市乔楼镇越洋旅社", "gpsLat": 34.756689694277, "price": "0", "gpsLng": 113.395207247157, "address": "荥阳市乔楼镇塔山路与中原路交叉口向北100米路西"}
{"city": "汕头", "name": "金冠酒店", "gpsLat": 23.374298385754, "price": "236", "gpsLng": 116.726483509039, "address": "龙湖区榕江路6号(近金园汽车客运总站)"}
{"city": "汕头", "name": "99旅馆连锁（广厦新城店）", "gpsLat": 23.403782183957, "price": "129", "gpsLng": 116.724378743749, "address": "金平区广厦新城杜鹃苑首层（天竺中学对面）"}
{"city": "汕头", "name": "达濠住宿", "gpsLat": 23.291616303146, "price": "0", "gpsLng": 116.737157675871, "address": "濠江区西田北路"}
{"city": "襄阳", "name": "晨曦宾馆", "gpsLat": 32.04835220507, "price": "138", "gpsLng": 112.165764638573, "address": "樊城区长征路-解放路拉美步行街6号楼1606号"}
{"city": "襄阳", "name": "景鸣酒店", "gpsLat": 32.088267575404, "price": "158", "gpsLng": 112.134876524567, "address": "樊城区航宇路5号(近邓曼路)"}
{"city": "襄阳", "name": "枣阳华夏旅社", "gpsLat": 32.129853774028, "price": "0", "gpsLng": 112.768677389546, "address": "枣阳市商业大厦,近商业大厦"}
{"city": "睢宁（徐州）", "name": "睢宁碧水湾旅社", "gpsLat": 33.855173618171, "price": "0", "gpsLng": 118.04110077536, "address": "睢宁县邱集镇"}
{"city": "睢宁（徐州）", "name": "睢宁唯一主题宾馆", "gpsLat": 33.907854253319, "price": "138", "gpsLng": 117.941616447109, "address": "睢宁县职教中心东100米"}
{"city": "睢宁（徐州）", "name": "睢宁陈家旅社", "gpsLat": 33.911093405098, "price": "0", "gpsLng": 118.054945757435, "address": "睢宁县高作镇"}
{"city": "高平（晋城）", "name": "高平九龙大酒店", "gpsLat": 35.804780805187, "price": "279", "gpsLng": 112.946311379694, "address": "山西省高平市长平东街450号"}
{"city": "高平（晋城）", "name": "山西省高平九龙大酒店", "gpsLat": 0.6245977282524109, "price": "158", "gpsLng": 1.970294713973999, "address": "高平市长平东街440号（长平东街与长晋高速交叉地带）|"}
{"city": "高平（晋城）", "name": "高平市阳光大酒店", "gpsLat": 0.6243893504142761, "price": "150", "gpsLng": 1.9701014757156372, "address": "高平市建设南路250号（人民医院正对面）"}
{"city": "大城（廊坊）", "name": "廊坊千村时尚快捷宾馆（大城县新城区店）", "gpsLat": 38.709852346189, "price": "158", "gpsLng": 116.657094590983, "address": "大城县平舒镇东环北路(规划局南侧)"}
{"city": "大城（廊坊）", "name": "鑫萍宾馆", "gpsLat": 38.699745372602, "price": "0", "gpsLng": 116.663354217626, "address": "大城县新车站南门"}
{"city": "大城（廊坊）", "name": "顺康楼宾馆", "gpsLat": 38.711516340827, "price": "0", "gpsLng": 116.654333794952, "address": "大城县永定大街126号"}
{"city": "全椒（滁州）", "name": "全椒东升宾馆", "gpsLat": 32.121359542677, "price": "0", "gpsLng": 118.292592892981, "address": "全椒县吴敬梓路769号"}
{"city": "全椒（滁州）", "name": "全椒红叶旅社", "gpsLat": 32.093505570843, "price": "50", "gpsLng": 118.273226318845, "address": "吴敬梓路老加油站旁"}
{"city": "全椒（滁州）", "name": "全椒惠佳旅馆", "gpsLat": 32.112185362798, "price": "0", "gpsLng": 118.284283170275, "address": "全椒县吴敬梓路119向东100米"}
{"city": "丽江（含束河）", "name": "丽江宏腾商务酒店(二分店)", "gpsLat": 26.867745788234, "price": "290", "gpsLng": 100.242815959226, "address": "丽江市三家村南口路"}
{"city": "丽江（含束河）", "name": "丽江福盛祥客栈", "gpsLat": 26.878291824061, "price": "318", "gpsLng": 100.245569921603, "address": "云南省丽江市古城区五一街文治巷104号"}
{"city": "丽江（含束河）", "name": "丽江雪山情缘宾馆", "gpsLat": 26.88230317869, "price": "0", "gpsLng": 100.230624721308, "address": "古城区七星街与福慧路中间(官房大酒店后面)"}
