{"city": "北京", "name": "古北口怀古云舍酒店", "gpsLat": 40.703379424514, "price": "0", "gpsLng": 117.142051648182, "address": "北京市密云县古北口镇古下线潮河关桥南150米(原西沟风景区)"}
{"city": "北京", "name": "宽街宾馆", "gpsLat": 39.938587671632, "price": "160", "gpsLng": 116.417096678618, "address": "老山胡同九号"}
{"city": "北京", "name": "八渡桥头隗秀银农家院", "gpsLat": 39.646284975064, "price": "0", "gpsLng": 115.61318567604, "address": "十渡镇八渡桥头"}
{"city": "北京", "name": "十渡春暖小院", "gpsLat": 39.646633491395, "price": "149", "gpsLng": 115.638456526835, "address": "十渡镇六渡村"}
{"city": "北京", "name": "华夏铭族快捷酒店", "gpsLat": 39.851427837542, "price": "218", "gpsLng": 116.433852797101, "address": "丰台区宋家庄地铁D口扑满山3楼"}
{"city": "广州", "name": "7天连锁酒店（越秀南客运站店）", "gpsLat": 23.126805663868, "price": "198", "gpsLng": 113.28534943283, "address": "越秀区地铁6号线团一大广场A出口往回步行100米,北京路和中华广场步行可到"}
{"city": "北京", "name": "君汇梦圆旅馆", "gpsLat": 39.946784639055, "price": "238", "gpsLng": 116.437037279651, "address": "东城区东直门内大街4号楼-5号（来福士中心西侧）"}
{"city": "荆州", "name": "天诚宾馆", "gpsLat": 30.312532452261, "price": "0", "gpsLng": 112.260772923755, "address": "荆州 北京中路公安分局旁 北京中路文化坊"}
